[
  {
    "iata": "CGK",
    "name": "Soekarno-Hatta International Airport",
    "city": "Jakarta",
    "country": "Indonesia",
    "latitude": -6.130643,
    "longitude": 106.655526
  },
  {
    "iata": "BPN",
    "name": "Sultan Aji Muhamad Sulaiman Airport",
    "city": "Balikpapan",
    "country": "Indonesia",
    "latitude": -1.260623,
    "longitude": 116.900817
  },
  {
    "iata": "DPS",
    "name": "Ngurah Rai International Airport",
    "city": "Denpasar",
    "country": "Indonesia",
    "latitude": -8.748056,
    "longitude": 115.1675
  },
  {
    "iata": "KNO",
    "name": "Kuala Namu International Airport",
    "city": "Kuala Namu",
    "country": "Indonesia",
    "latitude": 3.635369,
    "longitude": 98.879016
  },
  {
    "iata": "SUB",
    "name": "Juanda International Airport",
    "city": "Surabaya",
    "country": "Indonesia",
    "latitude": -7.377937,
    "longitude": 112.793782
  },
  {
    "iata": "UPG",
    "name": "Sultan Hasanuddin International Airport",
    "city": "Ujung Pandang",
    "country": "Indonesia",
    "latitude": -5.077019,
    "longitude": 119.547738
  },
  {
    "iata": "BDJ",
    "name": "Syamsudin Noor International Airport",
    "city": "Banjarmasin",
    "country": "Indonesia",
    "latitude": -3.43804,
    "longitude": 114.754253
  },
  {
    "iata": "BDO",
    "name": "Husein Sastranegara Airport",
    "city": "Bandung",
    "country": "Indonesia",
    "latitude": -6.904648,
    "longitude": 107.581779
  },
  {
    "iata": "BTH",
    "name": "Hang Nadim International Airport",
    "city": "Batam",
    "country": "Indonesia",
    "latitude": 1.123627,
    "longitude": 104.115279
  },
  {
    "iata": "DJJ",
    "name": "Sentani Airport",
    "city": "Jayapura",
    "country": "Indonesia",
    "latitude": -2.569887,
    "longitude": 140.51299
  },
  {
    "iata": "JOG",
    "name": "Adisutjipto International Airport",
    "city": "Yogyakarta",
    "country": "Indonesia",
    "latitude": -7.785572,
    "longitude": 110.43706
  },
  {
    "iata": "LOP",
    "name": "Lombok International Airport",
    "city": "Praya",
    "country": "Indonesia",
    "latitude": -8.761611,
    "longitude": 116.273838
  },
  {
    "iata": "MDC",
    "name": "Sam Ratulangi International Airport",
    "city": "Manado",
    "country": "Indonesia",
    "latitude": 1.543533,
    "longitude": 124.922029
  },
  {
    "iata": "PDG",
    "name": "Minangkabau International Airport",
    "city": "Padang",
    "country": "Indonesia",
    "latitude": -0.786667,
    "longitude": 100.280556
  },
  {
    "iata": "PKU",
    "name": "Sultan Syarif Kasim II International Airport",
    "city": "Pekanbaru",
    "country": "Indonesia",
    "latitude": 0.464563,
    "longitude": 101.446883
  },
  {
    "iata": "PLM",
    "name": "Sultan Mahmud Badaruddin II Airport",
    "city": "Palembang",
    "country": "Indonesia",
    "latitude": -2.900146,
    "longitude": 104.698607
  },
  {
    "iata": "PNK",
    "name": "Supadio International Airport",
    "city": "Pontianak",
    "country": "Indonesia",
    "latitude": -0.14735,
    "longitude": 109.405328
  },
  {
    "iata": "SRG",
    "name": "Achmad Yani International Airport",
    "city": "Semarang",
    "country": "Indonesia",
    "latitude": -6.979155,
    "longitude": 110.378549
  },
  {
    "iata": "WMX",
    "name": "Wamena Airport",
    "city": "Wamena",
    "country": "Indonesia",
    "latitude": -4.099906,
    "longitude": 138.953592
  },
  {
    "iata": "AAP",
    "name": "Aji Pangeran Tumenggung Airport",
    "city": "Samarinda",
    "country": "Indonesia",
    "latitude": -0.372898,
    "longitude": 117.250905
  },
  {
    "iata": "ABU",
    "name": "Haliwen Airport",
    "city": "Atambua",
    "country": "Indonesia",
    "latitude": -9.075208,
    "longitude": 124.906972
  },
  {
    "iata": "AEG",
    "name": "Aek Godang Airport",
    "city": "South Tapanuli Regency",
    "country": "Indonesia",
    "latitude": 1.400148,
    "longitude": 99.430407
  },
  {
    "iata": "AMI",
    "name": "Selaparang Airport",
    "city": "Mataram",
    "country": "Indonesia",
    "latitude": -8.563165,
    "longitude": 116.102375
  },
  {
    "iata": "AMQ",
    "name": "Pattimura Airport",
    "city": "Ambon",
    "country": "Indonesia",
    "latitude": -3.704996,
    "longitude": 128.088876
  },
  {
    "iata": "ARD",
    "name": "Alor Island Airport",
    "city": "Alor Island",
    "country": "Indonesia",
    "latitude": -8.132639,
    "longitude": 124.598106
  },
  {
    "iata": "AXO",
    "name": "Pantar Airport",
    "street1": "",
    "street2": "",
    "city": "Alor",
    "stateCode": "",
    "postalCode": "",
    "country": "Indonesia",
    "latitude": -8.245833,
    "longitude": 124.218611
  },
  {
    "iata": "BEJ",
    "name": "Kalimarau Airport",
    "city": "Berau",
    "country": "Indonesia",
    "latitude": 2.155327,
    "longitude": 117.433488
  },
  {
    "iata": "BIK",
    "name": "Frans Kaisiepo Airport",
    "city": "Biak",
    "country": "Indonesia",
    "latitude": -1.189503,
    "longitude": 136.107301
  },
  {
    "iata": "BJW",
    "name": "Bajawa Soa Airport",
    "city": "Bajawa",
    "country": "Indonesia",
    "latitude": -8.813029,
    "longitude": 120.998515
  },
  {
    "iata": "BKS",
    "name": "Fatmawati Soekarno Airport",
    "city": "Bengkulu",
    "country": "Indonesia",
    "latitude": -3.860561,
    "longitude": 102.338273
  },
  {
    "iata": "BMU",
    "name": "Sultan Muhammad Salahuddin Airport",
    "city": "Bima",
    "country": "Indonesia",
    "latitude": -8.542521,
    "longitude": 118.691765
  },
  {
    "iata": "BTJ",
    "name": "Sultan Iskandar Muda International Airport",
    "city": "Banda Aceh",
    "country": "Indonesia",
    "latitude": 5.518021,
    "longitude": 95.418329
  },
  {
    "iata": "BTW",
    "name": "Batulicin Airport",
    "city": "Batulicin",
    "country": "Indonesia",
    "latitude": -3.41194,
    "longitude": 116.000082
  },
  {
    "iata": "BUU",
    "name": "Muara Bungo Airport",
    "city": "Muara Bungo",
    "country": "Indonesia",
    "latitude": -1.540169,
    "longitude": 102.179283
  },
  {
    "iata": "BUW",
    "name": "Baubau Airport",
    "city": "Baubau",
    "country": "Indonesia",
    "latitude": -5.48688,
    "longitude": 122.569
  },
  {
    "iata": "BWX",
    "name": "Blimbingsari Airport",
    "city": "Banyuwangi",
    "country": "Indonesia",
    "latitude": -8.310229,
    "longitude": 114.340461
  },
  {
    "iata": "BXB",
    "name": "Babo Airport",
    "city": "Babo",
    "country": "Indonesia",
    "latitude": -2.532486,
    "longitude": 133.441147
  },
  {
    "iata": "DEX",
    "name": "Nop Goliath Airport",
    "city": "Yahukimo",
    "country": "Indonesia",
    "latitude": -4.8557,
    "longitude": 139.482
  },
  {
    "iata": "DJB",
    "name": "Sultan Thaha Airport",
    "city": "Jambi",
    "country": "Indonesia",
    "latitude": -1.631628,
    "longitude": 103.638826
  },
  {
    "iata": "DOB",
    "name": "Rar Gwamar Airport",
    "city": "Dobo",
    "country": "Indonesia",
    "latitude": -5.77376,
    "longitude": 134.209426
  },
  {
    "iata": "DTB",
    "name": "Silangit Airport",
    "city": "Siborong-Borong",
    "country": "Indonesia",
    "latitude": 2.259722,
    "longitude": 98.995278
  },
  {
    "iata": "DTD",
    "name": "Datadawai Airport",
    "city": "Datadawai",
    "country": "Indonesia",
    "latitude": 0.621316,
    "longitude": 116.600375
  },
  {
    "iata": "DUM",
    "name": "Pinang Kampai Airport",
    "city": "Dumai",
    "country": "Indonesia",
    "latitude": 1.61172,
    "longitude": 101.43373
  },
  {
    "iata": "ENE",
    "name": "H. Hasan Aroeboesman Airport",
    "city": "Ende",
    "country": "Indonesia",
    "latitude": -8.848239,
    "longitude": 121.664653
  },
  {
    "iata": "FKQ",
    "name": "Fak Fak Airport",
    "city": "Fak Fak",
    "country": "Indonesia",
    "latitude": -2.916667,
    "longitude": 132.3
  },
  {
    "iata": "FLZ",
    "name": "Ferdinand Lumban Tobing Airport",
    "city": "Sibolga",
    "country": "Indonesia",
    "latitude": 1.555833,
    "longitude": 98.888889
  },
  {
    "iata": "GHS",
    "name": "Melalan Airport",
    "city": "West Kutai",
    "country": "Indonesia",
    "latitude": -0.203889,
    "longitude": 115.759722
  },
  {
    "iata": "GLX",
    "name": "Gamar Malamo Airport",
    "city": "Galela",
    "country": "Indonesia",
    "latitude": 1.837815,
    "longitude": 127.787217
  },
  {
    "iata": "GNS",
    "name": "Gunungsitoli Airport",
    "city": "Gunungsitoli",
    "country": "Indonesia",
    "latitude": 1.25,
    "longitude": 97.5
  },
  {
    "iata": "GTO",
    "name": "Tolotio Airport",
    "city": "Gorontalo",
    "country": "Indonesia",
    "latitude": 0.639039,
    "longitude": 122.850876
  },
  {
    "iata": "GXA",
    "name": "Beringin Airport",
    "city": "Muara Teweh",
    "country": "Indonesia",
    "latitude": -0.942778,
    "longitude": 114.894444
  },
  {
    "iata": "GYO",
    "name": "Blangkejeren Airport",
    "street1": "",
    "street2": "",
    "city": "Blangkejeren",
    "stateCode": "",
    "postalCode": "",
    "country": "Indonesia",
    "latitude": 3.9453,
    "longitude": 97.3597
  },
  {
    "iata": "HLP",
    "name": "Halim Perdanakusuma Airport",
    "city": "Jakarta",
    "country": "Indonesia",
    "latitude": -6.268056,
    "longitude": 106.890278
  },
  {
    "iata": "JBB",
    "name": "Noto Hadinegoro Airport",
    "city": "Jember",
    "country": "Indonesia",
    "latitude": -8.242432,
    "longitude": 113.695324
  },
  {
    "iata": "JIO",
    "name": "Jos Orno Imsula Airport",
    "city": "Tiakur",
    "country": "Indonesia",
    "latitude": -8.140276,
    "longitude": 127.908115
  },
  {
    "iata": "KAZ",
    "name": "Kau Airport",
    "city": "Kau",
    "country": "Indonesia",
    "latitude": 1.166667,
    "longitude": 127.866667
  },
  {
    "iata": "KBU",
    "name": "Gusti Syamsir Alam Airport",
    "city": "Kotabaru",
    "country": "Indonesia",
    "latitude": -3.295796,
    "longitude": 116.165701
  },
  {
    "iata": "KDI",
    "name": "Haluoleo Airport",
    "city": "Kendari",
    "country": "Indonesia",
    "latitude": -4.081461,
    "longitude": 122.418851
  },
  {
    "iata": "KNG",
    "name": "Kaimana Airport",
    "city": "Kaimana",
    "country": "Indonesia",
    "latitude": -3.65,
    "longitude": 133.75
  },
  {
    "iata": "KOE",
    "name": "El Tari Airport",
    "city": "Kupang",
    "country": "Indonesia",
    "latitude": -10.168536,
    "longitude": 123.667254
  },
  {
    "iata": "KSR",
    "name": "H. Aroeppala Airport",
    "city": "Sulawesi Island",
    "country": "Indonesia",
    "latitude": -6.178611,
    "longitude": 120.437222
  },
  {
    "iata": "KTG",
    "name": "Ketapang Airport",
    "city": "Ketapang",
    "country": "Indonesia",
    "latitude": -1.833333,
    "longitude": 109.983333
  },
  {
    "iata": "KWB",
    "name": "Dewadaru Airport",
    "city": "Karimunjawa",
    "country": "Indonesia",
    "latitude": -5.802206,
    "longitude": 110.478396
  },
  {
    "iata": "KXB",
    "name": "Sangia Nibandera Airport",
    "street1": "",
    "street2": "",
    "city": "Kolaka",
    "stateCode": "",
    "postalCode": "",
    "country": "Indonesia",
    "latitude": -4.341744,
    "longitude": 121.523888
  },
  {
    "iata": "LAH",
    "name": "Oesman Sadik Airport",
    "city": "Labuha",
    "country": "Indonesia",
    "latitude": -0.636548,
    "longitude": 127.500265
  },
  {
    "iata": "LBJ",
    "name": "Komodo Airport",
    "city": "Labuan Bajo",
    "country": "Indonesia",
    "latitude": -8.486215,
    "longitude": 119.889281
  },
  {
    "iata": "LKA",
    "name": "Gewayenta Airport",
    "city": "Larantuka",
    "country": "Indonesia",
    "latitude": -8.274301,
    "longitude": 123.001315
  },
  {
    "iata": "LLO",
    "name": "Lagaligo Airport",
    "city": "Palopo",
    "country": "Indonesia",
    "latitude": -3.084722,
    "longitude": 120.245278
  },
  {
    "iata": "LMU",
    "name": "Letung Airport",
    "city": "Jemaja Island",
    "country": "Indonesia",
    "latitude": 2.963056,
    "longitude": 105.754444
  },
  {
    "iata": "LNU",
    "name": "Kolonel RA Bessing Airport",
    "city": "Malinau",
    "country": "Indonesia",
    "latitude": 3.576389,
    "longitude": 116.618333
  },
  {
    "iata": "LPU",
    "name": "Long Apung Airport",
    "city": "Long Apung",
    "country": "Indonesia",
    "latitude": 1.707091,
    "longitude": 114.969985
  },
  {
    "iata": "LSR",
    "name": "Alas Leuser Airport",
    "city": "Kutacane",
    "stateCode": "",
    "country": "Indonesia",
    "latitude": 3.3916,
    "longitude": 97.8633
  },
  {
    "iata": "LSW",
    "name": "Malikus Saleh Airport",
    "city": "Lhoksumawe",
    "country": "Indonesia",
    "latitude": 5.226667,
    "longitude": 96.950278
  },
  {
    "iata": "LUV",
    "name": "Langgur Airport",
    "city": "Langgur",
    "country": "Indonesia",
    "latitude": -5.666667,
    "longitude": 132.716667
  },
  {
    "iata": "LUW",
    "name": "S. Aminuddin Amir Airport",
    "city": "Luwuk",
    "country": "Indonesia",
    "latitude": -1.039336,
    "longitude": 122.771611
  },
  {
    "iata": "LWE",
    "name": "Wunopito Airport",
    "city": "Lewoleba",
    "country": "Indonesia",
    "latitude": -8.36278,
    "longitude": 123.43778
  },
  {
    "iata": "MEQ",
    "name": "Seunagan Airport",
    "city": "Meulaboh",
    "country": "Indonesia",
    "latitude": 4.15,
    "longitude": 96.116667
  },
  {
    "iata": "MJU",
    "name": "Tampa Padang Airport",
    "city": "Mamuju",
    "country": "Indonesia",
    "latitude": -2.587331,
    "longitude": 119.029065
  },
  {
    "iata": "MKQ",
    "name": "Mopah Airport",
    "city": "Merauke",
    "country": "Indonesia",
    "latitude": -8.519837,
    "longitude": 140.41894
  },
  {
    "iata": "MKW",
    "name": "Rendani Airport",
    "city": "Manokwari",
    "country": "Indonesia",
    "latitude": -0.893056,
    "longitude": 134.052778
  },
  {
    "iata": "MLG",
    "name": "Abdul Rachman Saleh Airport",
    "city": "Malang",
    "country": "Indonesia",
    "latitude": -7.926611,
    "longitude": 112.71449
  },
  {
    "iata": "MNA",
    "name": "Melangguane Airport",
    "city": "Melangguane",
    "country": "Indonesia",
    "latitude": 4.006202,
    "longitude": 126.673257
  },
  {
    "iata": "MOF",
    "name": "Wai Oti Airport",
    "city": "Maumere",
    "country": "Indonesia",
    "latitude": -8.637726,
    "longitude": 122.238255
  },
  {
    "iata": "MOH",
    "name": "Morowali Airport",
    "city": "Morowali",
    "country": "Indonesia",
    "latitude": -2.201897,
    "longitude": 121.662013
  },
  {
    "iata": "MWK",
    "name": "Tarempa Airport",
    "city": "Matak",
    "country": "Indonesia",
    "latitude": 3.349249,
    "longitude": 106.258179
  },
  {
    "iata": "NAH",
    "name": "Naha Airport",
    "city": "Naha",
    "country": "Indonesia",
    "latitude": 3.716667,
    "longitude": 125.366667
  },
  {
    "iata": "NAM",
    "name": "Namlea Airport",
    "city": "Namlea",
    "country": "Indonesia",
    "latitude": -3.237134,
    "longitude": 127.100235
  },
  {
    "iata": "NBX",
    "name": "Nabire Airport",
    "city": "Nabire",
    "country": "Indonesia",
    "latitude": -3.366667,
    "longitude": 135.433333
  },
  {
    "iata": "NNX",
    "name": "Nunukan Airport",
    "city": "Nunukan",
    "country": "Indonesia",
    "latitude": 4.136772,
    "longitude": 117.667141
  },
  {
    "iata": "NRE",
    "name": "Namrole Airport",
    "city": "Namrole",
    "country": "Indonesia",
    "latitude": -3.854102,
    "longitude": 126.703082
  },
  {
    "iata": "NTX",
    "name": "Natuna Ranai Airport",
    "city": "Natuna Ranai",
    "country": "Indonesia",
    "latitude": 3.95,
    "longitude": 108.383333
  },
  {
    "iata": "OJU",
    "name": "Tanjung Api Airport",
    "street1": "",
    "street2": "",
    "city": "Tojo Una Una",
    "stateCode": "",
    "postalCode": "",
    "country": "Indonesia",
    "latitude": -0.862631,
    "longitude": 121.623951
  },
  {
    "iata": "OKL",
    "name": "Gunung Bintang Airport",
    "city": "Oksibil",
    "country": "Indonesia",
    "latitude": -4.908143,
    "longitude": 140.630456
  },
  {
    "iata": "OTI",
    "name": "Pitu Airport",
    "city": "Morotai Island",
    "country": "Indonesia",
    "latitude": 2.04599,
    "longitude": 128.324997
  },
  {
    "iata": "PGK",
    "name": "Depati Amir Airport",
    "city": "Pangkal Pinang",
    "country": "Indonesia",
    "latitude": -2.164017,
    "longitude": 106.137071
  },
  {
    "iata": "PGQ",
    "name": "Buli Airport",
    "city": "Buil",
    "country": "Indonesia",
    "latitude": 0.918889,
    "longitude": 128.3825
  },
  {
    "iata": "PKN",
    "name": "Iskandar Airport",
    "city": "Pangkalanbun",
    "country": "Indonesia",
    "latitude": -2.703815,
    "longitude": 111.669942
  },
  {
    "iata": "PKY",
    "name": "Tjilik Riwut Airport",
    "city": "Palangkaraya",
    "country": "Indonesia",
    "latitude": -2.223958,
    "longitude": 113.945782
  },
  {
    "iata": "PLW",
    "name": "Mutiara Airport",
    "city": "Palu",
    "country": "Indonesia",
    "latitude": -0.918617,
    "longitude": 119.909729
  },
  {
    "iata": "PPR",
    "name": "Pasir Pangarayan Airport",
    "city": "Pasir Pangarayan",
    "country": "Indonesia",
    "latitude": 0.845755,
    "longitude": 100.367981
  },
  {
    "iata": "PSJ",
    "name": "Kasiguncu Airport",
    "city": "Poso",
    "country": "Indonesia",
    "latitude": -1.416767,
    "longitude": 120.657577
  },
  {
    "iata": "PSU",
    "name": "Pangsuma Airport",
    "city": "Putussibau",
    "country": "Indonesia",
    "latitude": 0.835433,
    "longitude": 112.937507
  },
  {
    "name": "Pomala Airport",
    "city": "Pomala",
    "country": "Indonesia",
    "latitude": -4.180931,
    "longitude": 121.615124
  },
  {
    "iata": "PXA",
    "name": "Pagar Alam Airport",
    "city": "Lahat",
    "country": "Indonesia",
    "latitude": -4.022327,
    "longitude": 103.379704
  },
  {
    "iata": "RJM",
    "name": "Marinda Airport",
    "city": "Waisai",
    "country": "Indonesia",
    "latitude": -0.423056,
    "longitude": 130.773333
  },
  {
    "iata": "RTG",
    "name": "Frans Sales Lega Airport",
    "city": "Ruteng",
    "country": "Indonesia",
    "latitude": -8.596921,
    "longitude": 120.478345
  },
  {
    "iata": "RTI",
    "name": "David C. Saudale Airport",
    "city": "Rote Island",
    "country": "Indonesia",
    "latitude": -10.767597,
    "longitude": 123.073303
  },
  {
    "iata": "SBG",
    "name": "Maimun Saleh Airport",
    "city": "Sabang",
    "country": "Indonesia",
    "latitude": 5.87365,
    "longitude": 95.341587
  },
  {
    "iata": "SMQ",
    "name": "H. Asan Airport",
    "city": "Sampit",
    "country": "Indonesia",
    "latitude": -2.502806,
    "longitude": 112.979002
  },
  {
    "iata": "SOC",
    "name": "Adi Sumarmo International Airport",
    "city": "Surakarta",
    "country": "Indonesia",
    "latitude": -7.514458,
    "longitude": 110.749956
  },
  {
    "iata": "SOQ",
    "name": "Sorong Airport",
    "city": "Sorong",
    "country": "Indonesia",
    "latitude": -0.890214,
    "longitude": 131.290591
  },
  {
    "iata": "SQG",
    "name": "Susilo Airport",
    "city": "Sintang",
    "country": "Indonesia",
    "latitude": 0.063215,
    "longitude": 111.472328
  },
  {
    "iata": "SQN",
    "name": "Emalamo Sanana Airport",
    "city": "Sanana",
    "country": "Indonesia",
    "latitude": -2.098013,
    "longitude": 125.965079
  },
  {
    "iata": "SRI",
    "name": "Aji Pangeran Tumenggung Pranoto International Airport",
    "city": "Samarinda",
    "country": "Indonesia",
    "latitude": -0.373611,
    "longitude": 117.255556
  },
  {
    "iata": "SWQ",
    "name": "Sultan Muhammad Kaharuddin III Airport",
    "city": "Sumbawa Besar",
    "country": "Indonesia",
    "latitude": -8.489122,
    "longitude": 117.414088
  },
  {
    "iata": "SXK",
    "name": "Saumlaki Olilit Airport",
    "city": "Saumlaki",
    "country": "Indonesia",
    "latitude": -7.988421,
    "longitude": 131.304336
  },
  {
    "iata": "TBM",
    "name": "Tumbang Samba Airport",
    "city": "Tumbang Samba",
    "country": "Indonesia",
    "latitude": -1.4694,
    "longitude": 113.0833
  },
  {
    "iata": "TBX",
    "name": "Tambelan Airport",
    "street1": "",
    "street2": "",
    "city": "Tambelan",
    "stateCode": "",
    "postalCode": "",
    "country": "Indonesia",
    "latitude": 0.983333,
    "longitude": 107.566944
  },
  {
    "iata": "TIM",
    "name": "Timika Airport",
    "city": "Tembagapura",
    "country": "Indonesia",
    "latitude": -4.525666,
    "longitude": 136.887486
  },
  {
    "iata": "TJG",
    "name": "Warukin Airport",
    "city": "Tanjung",
    "country": "Indonesia",
    "latitude": -2.21656,
    "longitude": 115.435997
  },
  {
    "iata": "TJQ",
    "name": "Bulutumbang Airport",
    "city": "Tanjung Pandan",
    "country": "Indonesia",
    "latitude": -2.74572,
    "longitude": 107.754997
  },
  {
    "iata": "TJS",
    "name": "Tanjung Harapan Airport",
    "city": "Tanjung Selor",
    "country": "Indonesia",
    "latitude": 2.836389,
    "longitude": 117.373611
  },
  {
    "iata": "TKG",
    "name": "Radin Inten II Airport",
    "city": "Bandar Lampung",
    "country": "Indonesia",
    "latitude": -5.242783,
    "longitude": 105.175795
  },
  {
    "iata": "TLI",
    "name": "Sultan Bantilan Airport",
    "city": "Toli Toli",
    "country": "Indonesia",
    "latitude": 1.122492,
    "longitude": 120.793618
  },
  {
    "iata": "TMC",
    "name": "Tambolaka Airport",
    "city": "Tambolaka",
    "country": "Indonesia",
    "latitude": -9.40972,
    "longitude": 119.244003
  },
  {
    "iata": "TMH",
    "name": "Tanahmerah Airport",
    "city": "Tanahmerah",
    "country": "Indonesia",
    "latitude": -6.096228,
    "longitude": 140.305916
  },
  {
    "iata": "TNJ",
    "name": "Raja Haji Fisabilillah Airport",
    "city": "Tanjung Pinang",
    "country": "Indonesia",
    "latitude": 0.922683,
    "longitude": 104.531998
  },
  {
    "iata": "TQQ",
    "name": "Maranggo Airport",
    "street1": "",
    "street2": "",
    "city": "Tomia",
    "stateCode": "",
    "postalCode": "",
    "country": "Indonesia",
    "latitude": -5.767236,
    "longitude": 123.919596
  },
  {
    "iata": "TRK",
    "name": "Juwata International Airport",
    "city": "Tarakan",
    "country": "Indonesia",
    "latitude": 3.326377,
    "longitude": 117.568603
  },
  {
    "iata": "TTE",
    "name": "Babullah Airport",
    "city": "Ternate",
    "country": "Indonesia",
    "latitude": 0.832233,
    "longitude": 127.379132
  },
  {
    "iata": "TTR",
    "name": "Pongtiku Airport",
    "city": "Tana Toraja",
    "country": "Indonesia",
    "latitude": -3.043588,
    "longitude": 119.821247
  },
  {
    "iata": "TXE",
    "name": "Takengon Rembele Airport",
    "city": "Takengon",
    "country": "Indonesia",
    "latitude": 4.72123,
    "longitude": 96.849009
  },
  {
    "iata": "UOL",
    "name": "Pogogul Airport",
    "city": "Buol",
    "country": "Indonesia",
    "latitude": 1.104373,
    "longitude": 121.416029
  },
  {
    "iata": "WGP",
    "name": "Umbu Mehang Kunda Airport",
    "city": "Waingapu",
    "country": "Indonesia",
    "latitude": -9.669213,
    "longitude": 120.302005
  },
  {
    "iata": "LLJ",
    "name": "Silampari Airport",
    "city": "Lubuk Linggau",
    "country": "Indonesia",
    "latitude": -3.284167,
    "longitude": 102.913333
  },
  {
    "iata": "",
    "name": "Muara Bungo Airport",
    "city": "Muara Bungo",
    "country": "Indonesia",
    "latitude": -1.5425,
    "longitude": 102.182778
  },
  {
    "iata": "WNI",
    "name": "Matahora Airport",
    "city": "Wangiwangi Island",
    "country": "Indonesia",
    "latitude": -5.290556,
    "longitude": 123.635
  },
  {
    "iata": "YIA",
    "name": "New Yogyakarta International Airport",
    "street1": "",
    "street2": "",
    "city": "Yogyakarta",
    "stateCode": "",
    "postalCode": "",
    "country": "Indonesia",
    "latitude": -7.905099,
    "longitude": 110.056623
  },
  {
    "iata": "AAS",
    "name": "Apalapsili Airport",
    "city": "Apalapsili",
    "country": "Indonesia",
    "latitude": -3.916667,
    "longitude": 139.25
  },
  {
    "iata": "AGD",
    "name": "Anggi Airport",
    "city": "Anggi",
    "country": "Indonesia",
    "latitude": -1.383333,
    "longitude": 133.866667
  },
  {
    "iata": "AHI",
    "name": "Amahai Airport",
    "city": "Amahai",
    "country": "Indonesia",
    "latitude": -3.333333,
    "longitude": 128.916667
  },
  {
    "iata": "AKQ",
    "name": "Gunung Batin Airport",
    "city": "Astraksetra",
    "country": "Indonesia",
    "latitude": -4.616667,
    "longitude": 105.233333
  },
  {
    "iata": "ARJ",
    "name": "Arso Airport",
    "city": "Arso",
    "country": "Indonesia",
    "latitude": -2.933333,
    "longitude": 140.783333
  },
  {
    "iata": "AUT",
    "name": "Atauro Airport",
    "city": "Atauro",
    "country": "Indonesia",
    "latitude": -8.216667,
    "longitude": 125.583333
  },
  {
    "iata": "AYW",
    "name": "Ayawasi Airport",
    "city": "Ayawasi",
    "country": "Indonesia",
    "latitude": -1.2,
    "longitude": 132.5
  },
  {
    "iata": "BCH",
    "name": "Baucau Airport",
    "city": "Baucau",
    "country": "Indonesia",
    "latitude": -8.480239,
    "longitude": 126.396437
  },
  {
    "iata": "BJG",
    "name": "Mopait Airport",
    "city": "Kota Mobagu",
    "country": "Indonesia",
    "latitude": -0.6835,
    "longitude": 124.2757
  },
  {
    "iata": "BJK",
    "name": "Benjina Airport",
    "city": "Benjina",
    "country": "Indonesia",
    "latitude": -6.083333,
    "longitude": 134.25
  },
  {
    "iata": "BUI",
    "name": "Bokondini Airport",
    "city": "Bokondini",
    "country": "Indonesia",
    "latitude": -2,
    "longitude": 133.583333
  },
  {
    "iata": "BXD",
    "name": "Bade Airport",
    "city": "Bade",
    "country": "Indonesia",
    "latitude": -7.166667,
    "longitude": 139.5
  },
  {
    "iata": "BXM",
    "name": "Batom Airport",
    "city": "Batom",
    "country": "Indonesia",
    "latitude": -4.116667,
    "longitude": 140.85
  },
  {
    "iata": "BXT",
    "name": "Bontang Airport",
    "city": "Bontang",
    "country": "Indonesia",
    "latitude": 0.166667,
    "longitude": 117.5
  },
  {
    "iata": "BYQ",
    "name": "Bunyu Airport",
    "city": "Bunyu",
    "country": "Indonesia",
    "latitude": 3.583333,
    "longitude": 117.833333
  },
  {
    "iata": "CBN",
    "name": "Penggung Airport",
    "city": "Cirebon",
    "country": "Indonesia",
    "latitude": -6.75,
    "longitude": 108.533333
  },
  {
    "iata": "CJN",
    "name": "Cijulang Nusawiru Airport",
    "city": "Pangandaran",
    "country": "Indonesia",
    "latitude": -7.72,
    "longitude": 108.488611
  },
  {
    "iata": "CPF",
    "name": "Cepu Airport",
    "city": "Cepu",
    "country": "Indonesia",
    "latitude": -7.15,
    "longitude": 111.583333
  },
  {
    "iata": "CXP",
    "name": "Tunggul Wulung Airport",
    "city": "Cilacap",
    "country": "Indonesia",
    "latitude": -7.733333,
    "longitude": 109
  },
  {
    "iata": "DRH",
    "name": "Dabra Airport",
    "city": "Dabra",
    "country": "Indonesia",
    "latitude": -3.25,
    "longitude": 138.566667
  },
  {
    "iata": "ELR",
    "name": "Elelim, Irian Jaya Airport",
    "city": "Elelim, Irian Jaya",
    "country": "Indonesia",
    "latitude": -3.816667,
    "longitude": 140.066667
  },
  {
    "iata": "EWE",
    "name": "Ewer Airport",
    "city": "Ewer",
    "country": "Indonesia",
    "latitude": -5.483333,
    "longitude": 138.083333
  },
  {
    "iata": "EWI",
    "name": "Enarotali Airport",
    "city": "Enarotali",
    "country": "Indonesia",
    "latitude": -3.966667,
    "longitude": 136.333333
  },
  {
    "iata": "FOO",
    "name": "Kornasoren Airfield",
    "city": "Noemfoor",
    "country": "Indonesia",
    "latitude": -0.936162,
    "longitude": 134.865261
  },
  {
    "iata": "GAV",
    "name": "Gag Island Airport",
    "city": "Gag Island",
    "country": "Indonesia",
    "latitude": -26,
    "longitude": 130.883333
  },
  {
    "iata": "GEB",
    "name": "Gebe Airport",
    "city": "Gebe",
    "country": "Indonesia",
    "latitude": 0.083333,
    "longitude": 129.416667
  },
  {
    "iata": "HMS",
    "name": "Haji Muhammad Sidik Airport",
    "city": "Muara Teweh",
    "stateCode": "",
    "country": "Indonesia",
    "latitude": -1.0219,
    "longitude": 114.9256
  },
  {
    "iata": "ILA",
    "name": "Illaga Airport",
    "city": "Illaga",
    "country": "Indonesia",
    "latitude": -3.65,
    "longitude": 133.733333
  },
  {
    "iata": "INX",
    "name": "Inanwatan Airport",
    "city": "Inanwatan",
    "country": "Indonesia",
    "latitude": -2.166667,
    "longitude": 132.233333
  },
  {
    "iata": "IUL",
    "name": "Ilu Airport",
    "city": "Ilu",
    "country": "Indonesia",
    "latitude": -3.733333,
    "longitude": 138.166667
  },
  {
    "iata": "KBF",
    "name": "Karubaga Airport",
    "city": "Karubaga",
    "country": "Indonesia",
    "latitude": -3.716667,
    "longitude": 138.45
  },
  {
    "iata": "KBX",
    "name": "Kambuaya Airport",
    "city": "Kambuaya",
    "country": "Indonesia",
    "latitude": -1,
    "longitude": 132.25
  },
  {
    "iata": "KCD",
    "name": "Kamur Airport",
    "city": "Kamur",
    "country": "Indonesia",
    "latitude": -6.2,
    "longitude": 138.716667
  },
  {
    "iata": "KEI",
    "name": "Kepi Airport",
    "city": "Kepi",
    "country": "Indonesia",
    "latitude": -6.566667,
    "longitude": 139.333333
  },
  {
    "iata": "KEQ",
    "name": "Kebar Airport",
    "city": "Kebar",
    "country": "Indonesia",
    "latitude": -5.833333,
    "longitude": 134.833333
  },
  {
    "iata": "KJT",
    "name": "Kertajati International Airport",
    "city": "Majalengka",
    "country": "Indonesia",
    "latitude": -6.649717,
    "longitude": 108.166296
  },
  {
    "iata": "KLQ",
    "name": "Keluang Airport",
    "city": "Keluang",
    "country": "Indonesia",
    "latitude": -2.683333,
    "longitude": 103.9
  },
  {
    "iata": "KMM",
    "name": "Kiman Airport",
    "city": "Kiman",
    "country": "Indonesia",
    "latitude": -3.666667,
    "longitude": 136.166667
  },
  {
    "iata": "KOD",
    "name": "Kotabangun Airport",
    "city": "Kotabangun",
    "country": "Indonesia",
    "latitude": -0.266667,
    "longitude": 116.583333
  },
  {
    "iata": "KOX",
    "name": "Kokonao Airport",
    "city": "Kokonao",
    "country": "Indonesia",
    "latitude": -4.716667,
    "longitude": 136.416667
  },
  {
    "iata": "KRC",
    "name": "Kerinci Airport",
    "city": "Kerinci",
    "country": "Indonesia",
    "latitude": -1.716667,
    "longitude": 101.25
  },
  {
    "iata": "LBW",
    "name": "Long Bawan Airport",
    "city": "Long Bawan",
    "country": "Indonesia",
    "latitude": 3.9028,
    "longitude": 115.6921
  },
  {
    "iata": "LHI",
    "name": "Lereh Airport",
    "city": "Lereh",
    "country": "Indonesia",
    "latitude": -3.133333,
    "longitude": 139.9
  },
  {
    "iata": "LII",
    "name": "Mulia Airport",
    "city": "Mulia",
    "country": "Indonesia",
    "latitude": -3.733333,
    "longitude": 137.966667
  },
  {
    "iata": "LLN",
    "name": "Kelila Airport",
    "city": "Kelila",
    "country": "Indonesia",
    "latitude": -3.75,
    "longitude": 138.666667
  },
  {
    "iata": "LSX",
    "name": "Lhok Sukon Airport",
    "city": "Lhok Sukon",
    "country": "Indonesia",
    "latitude": 5.066667,
    "longitude": 97.316667
  },
  {
    "iata": "LYK",
    "name": "Lunyuk Airport",
    "city": "Lunyuk",
    "country": "Indonesia",
    "latitude": -9,
    "longitude": 117.266667
  },
  {
    "iata": "MAL",
    "name": "Mangole Airport",
    "city": "Mangole",
    "country": "Indonesia",
    "latitude": -1.833333,
    "longitude": 125.916667
  },
  {
    "iata": "MDP",
    "name": "Mindiptana Airport",
    "city": "Mindiptana",
    "country": "Indonesia",
    "latitude": -5.833333,
    "longitude": 140.833333
  },
  {
    "iata": "MES",
    "name": "Soewondo Air Force Base",
    "city": "Medan",
    "country": "Indonesia",
    "latitude": 3.56587,
    "longitude": 98.677374
  },
  {
    "iata": "MJY",
    "name": "Mangunjaya Airport",
    "city": "Mangunjaya",
    "country": "Indonesia",
    "latitude": -2.733333,
    "longitude": 103.566667
  },
  {
    "iata": "MPC",
    "name": "Muko-Muko Airport",
    "city": "Muko-Muko",
    "country": "Indonesia",
    "latitude": -2.55,
    "longitude": 101.1
  },
  {
    "iata": "MPT",
    "name": "Maliana Airport",
    "city": "Maliana",
    "country": "Indonesia",
    "latitude": -8.066667,
    "longitude": 125.25
  },
  {
    "iata": "MSI",
    "name": "Masalembo Airport",
    "city": "Masalembo",
    "country": "Indonesia",
    "latitude": -5.583333,
    "longitude": 114.433333
  },
  {
    "iata": "MUF",
    "name": "Muting Airport",
    "city": "Muting",
    "country": "Indonesia",
    "latitude": -7.5,
    "longitude": 140.333333
  },
  {
    "iata": "MWS",
    "name": "Bandara Khusus IMIP Airport",
    "city": "Morowali",
    "country": "Indonesia",
    "latitude": -2.800833,
    "longitude": 122.142778
  },
  {
    "iata": "MXB",
    "name": "Andi Jemma Airport",
    "city": "Masamba",
    "country": "Indonesia",
    "latitude": -2.556864,
    "longitude": 120.326997
  },
  {
    "iata": "NAF",
    "name": "Banaina Airport",
    "city": "Banaina",
    "country": "Indonesia",
    "latitude": 2.75,
    "longitude": 117.05
  },
  {
    "iata": "NDA",
    "name": "Bandanaira Airport",
    "city": "Bandanaira",
    "country": "Indonesia",
    "latitude": -4.533333,
    "longitude": 129.9
  },
  {
    "iata": "NKD",
    "name": "Sinak, Irian Jaya Airport",
    "city": "Sinak, Irian Jaya",
    "country": "Indonesia",
    "latitude": -5.85,
    "longitude": 110.466667
  },
  {
    "iata": "NPO",
    "name": "Nangapinoh Airport",
    "city": "Nangapinoh",
    "country": "Indonesia",
    "latitude": -0.333333,
    "longitude": 111.733333
  },
  {
    "iata": "NTI",
    "name": "Bintuni Airport",
    "city": "Bintuni",
    "country": "Indonesia",
    "latitude": -2.333333,
    "longitude": 133.25
  },
  {
    "iata": "OBD",
    "name": "Obano Airport",
    "city": "Obano",
    "country": "Indonesia",
    "latitude": -3.9,
    "longitude": 136.2
  },
  {
    "iata": "OEC",
    "name": "Ocussi Airport",
    "city": "Ocussi",
    "country": "Indonesia",
    "latitude": -9.205,
    "longitude": 124.341667
  },
  {
    "iata": "OKQ",
    "name": "Okaba Airport",
    "city": "Okaba",
    "country": "Indonesia",
    "latitude": -8.1,
    "longitude": 139.7
  },
  {
    "iata": "ONI",
    "name": "Moanamani Airport",
    "city": "Moanamani",
    "country": "Indonesia",
    "latitude": -3.333333,
    "longitude": 135.5
  },
  {
    "iata": "PCB",
    "name": "Pondok Cabe Airport",
    "city": "Pondok Cabe",
    "country": "Indonesia",
    "latitude": -6.35,
    "longitude": 106.766667
  },
  {
    "iata": "PDO",
    "name": "Pendopo Airport",
    "city": "Pendopo",
    "country": "Indonesia",
    "latitude": -3.283333,
    "longitude": 103.866667
  },
  {
    "iata": "PPJ",
    "name": "Pulau Panjang Airport",
    "city": "Pulau Panjang",
    "country": "Indonesia",
    "latitude": -0.633333,
    "longitude": 103.3
  },
  {
    "iata": "PWL",
    "name": "Purwokerto Airport",
    "city": "Purwokerto",
    "country": "Indonesia",
    "latitude": -7.466667,
    "longitude": 109.15
  },
  {
    "iata": "RAQ",
    "name": "Sugimanuru Airport",
    "city": "Raha",
    "country": "Indonesia",
    "latitude": -4.916667,
    "longitude": 122.583333
  },
  {
    "iata": "RDE",
    "name": "Merdey Airport",
    "city": "Merdey",
    "country": "Indonesia",
    "latitude": -1.583333,
    "longitude": 133.333333
  },
  {
    "iata": "RGT",
    "name": "Japura Airport",
    "city": "Rengat",
    "country": "Indonesia",
    "latitude": -0.4,
    "longitude": 102.55
  },
  {
    "iata": "RKI",
    "name": "Rokot Airport",
    "city": "Rokot",
    "country": "Indonesia",
    "latitude": -0.95,
    "longitude": 100.75
  },
  {
    "iata": "RKO",
    "name": "Sipora Airport",
    "city": "Sipora",
    "country": "Indonesia",
    "latitude": -2.083333,
    "longitude": 116
  },
  {
    "iata": "RSK",
    "name": "Abresso Airport",
    "city": "Ransiki",
    "country": "Indonesia",
    "latitude": -1.499828,
    "longitude": 134.179972
  },
  {
    "iata": "RUF",
    "name": "Yuruf, Irian Jaya Airport",
    "city": "Yuruf, Irian Jaya",
    "country": "Indonesia",
    "latitude": -3.633333,
    "longitude": 140.933333
  },
  {
    "iata": "SAU",
    "name": "Tardamu Airport",
    "city": "Sawu",
    "country": "Indonesia",
    "latitude": -10.4924,
    "longitude": 121.8482
  },
  {
    "iata": "SEH",
    "name": "Senggeh Airport",
    "city": "Senggeh",
    "country": "Indonesia",
    "latitude": -3.433333,
    "longitude": 140.816667
  },
  {
    "iata": "SEQ",
    "name": "Sungaipinang Airport",
    "city": "Sungaipinang",
    "country": "Indonesia",
    "latitude": -0.8,
    "longitude": 114.066667
  },
  {
    "iata": "SGQ",
    "name": "Sanggata Airport",
    "city": "Sanggata",
    "country": "Indonesia",
    "latitude": 0.5,
    "longitude": 117.333333
  },
  {
    "iata": "SIQ",
    "name": "Dabo Airport",
    "city": "Singkep",
    "country": "Indonesia",
    "latitude": -0.5,
    "longitude": 104.416667
  },
  {
    "iata": "SQR",
    "name": "Soroako Airport",
    "city": "Soroako",
    "country": "Indonesia",
    "latitude": -2.531678,
    "longitude": 121.359134
  },
  {
    "iata": "SUP",
    "name": "Trunojoyo Airport",
    "city": "Sumenep",
    "country": "Indonesia",
    "latitude": -7.066667,
    "longitude": 113.933333
  },
  {
    "iata": "SZH",
    "name": "Senipah Airport",
    "city": "Senipah",
    "country": "Indonesia",
    "latitude": -0.966667,
    "longitude": 117.133333
  },
  {
    "iata": "TAX",
    "name": "Taliabu Airport",
    "city": "Taliabu",
    "country": "Indonesia",
    "latitude": -1.766667,
    "longitude": 124.8
  },
  {
    "iata": "TJB",
    "name": "Tanjung Balai Airport",
    "city": "Tanjung Balai",
    "country": "Indonesia",
    "latitude": 2.916667,
    "longitude": 99.733333
  },
  {
    "iata": "TMY",
    "name": "Tiom Airport",
    "city": "Tiom",
    "country": "Indonesia",
    "latitude": -3.95,
    "longitude": 138.416667
  },
  {
    "iata": "TNB",
    "name": "Tanahgrogot Airport",
    "city": "Tanahgrogot",
    "country": "Indonesia",
    "latitude": -1.916667,
    "longitude": 116.2
  },
  {
    "iata": "TPK",
    "name": "Tapaktuan Airport",
    "city": "Tapaktuan",
    "country": "Indonesia",
    "latitude": 3.266667,
    "longitude": 97.183333
  },
  {
    "iata": "TRT",
    "name": "Toraja Airport",
    "city": "Mengkendek",
    "stateCode": "",
    "country": "Indonesia",
    "latitude": -3.1856,
    "longitude": 119.9178
  },
  {
    "iata": "TSX",
    "name": "Tanjung Santan Airport",
    "city": "Tanjung Santan",
    "country": "Indonesia",
    "latitude": -0.083333,
    "longitude": 117.433333
  },
  {
    "iata": "TSY",
    "name": "Tasikmalaya Airport",
    "city": "Tasikmalaya",
    "country": "Indonesia",
    "latitude": -7.3466,
    "longitude": 108.246002
  },
  {
    "iata": "TXM",
    "name": "Teminabuan Airport",
    "city": "Teminabuan",
    "country": "Indonesia",
    "latitude": -1.433333,
    "longitude": 132.016667
  },
  {
    "iata": "UBR",
    "name": "Ubrub, Irian Jaya Airport",
    "city": "Ubrub, Irian Jaya",
    "country": "Indonesia",
    "latitude": -3.666667,
    "longitude": 140.85
  },
  {
    "iata": "UGU",
    "name": "Zugapa, Irian Jaya Airport",
    "city": "Zugapa, Irian Jaya",
    "country": "Indonesia",
    "latitude": -3.733333,
    "longitude": 137.033333
  },
  {
    "iata": "VIQ",
    "name": "Viqueque Airport",
    "city": "Viqueque",
    "country": "Indonesia",
    "latitude": -8.883333,
    "longitude": 126.366667
  },
  {
    "iata": "",
    "name": "Kasiguncu",
    "city": "Poso  Indonesia",
    "country": "Indonesia",
    "latitude": -1.415206,
    "longitude": 120.733333
  },
  {
    "iata": "",
    "name": "Pitu",
    "city": "Morotai",
    "country": "Indonesia",
    "latitude": 2.160051,
    "longitude": 128.452778
  },
  {
    "iata": "",
    "name": "Kisar",
    "city": "Kisar Island",
    "country": "Indonesia",
    "latitude": -8.161111,
    "longitude": 127.205556
  },
  {
    "iata": "WAR",
    "name": "Waris Airport",
    "city": "Waris",
    "country": "Indonesia",
    "latitude": -3.116667,
    "longitude": 140.883333
  },
  {
    "iata": "WBA",
    "name": "Wahai Airport",
    "city": "Wahai",
    "country": "Indonesia",
    "latitude": -2.816667,
    "longitude": 129.483333
  },
  {
    "iata": "WET",
    "name": "Wagethe Airport",
    "city": "Wagethe",
    "country": "Indonesia",
    "latitude": -4.166667,
    "longitude": 135.833333
  },
  {
    "iata": "",
    "name": "Iswahyudi",
    "city": "Madiun",
    "country": "Indonesia",
    "latitude": -7.7,
    "longitude": 111.433333
  },
  {
    "iata": "",
    "name": "Budiarto",
    "city": "Tangerang",
    "country": "Indonesia",
    "latitude": -6.383333,
    "longitude": 106.580556
  },
  {
    "iata": "",
    "name": "Ranai",
    "city": "Ranai",
    "country": "Indonesia",
    "latitude": 4.033623,
    "longitude": 108.433333
  },
  {
    "iata": "",
    "name": "Lasikin Airport",
    "city": "Sinabang",
    "country": "Indonesia",
    "latitude": 2.410478,
    "longitude": 96.325535
  },
  {
    "iata": "",
    "name": "Warukin",
    "city": "Warukin",
    "country": "Indonesia",
    "latitude": -2.337668,
    "longitude": 115.583333
  },
  {
    "iata": "",
    "name": "Satartacik",
    "city": "Satartacik",
    "country": "Indonesia",
    "latitude": -8.6,
    "longitude": 120.483333
  },
  {
    "iata": "WSR",
    "name": "Wasior Airport",
    "city": "Wasior",
    "country": "Indonesia",
    "latitude": -2.716667,
    "longitude": 134.5
  },
  {
    "iata": "ZEG",
    "name": "Senggo Airport",
    "city": "Senggo",
    "country": "Indonesia",
    "latitude": -5.983333,
    "longitude": 139.366667
  },
  {
    "iata": "ZRI",
    "name": "S. Condronegoro Airport",
    "city": "Serui",
    "country": "Indonesia",
    "latitude": -1.873953,
    "longitude": 136.23948
  },
  {
    "iata": "ZRM",
    "name": "Sarmi Airport",
    "city": "Sarmi",
    "country": "Indonesia",
    "latitude": -1.85,
    "longitude": 138.75
  }
]
